{
  "type": "FeatureCollection",
  "features": [
    {
      "type": "Feature",
      "properties": {
        "name": "Bodrum"
      },
      "geometry": {
        "type": "Point",
        "coordinates": [
          27.4292,
          37.0344
        ]
      }
    },
    {
      "type": "Feature",
      "properties": {
        "name": "Marmaris"
      },
      "geometry": {
        "type": "Point",
        "coordinates": [
          28.2746,
          36.8527
        ]
      }
    },
    {
      "type": "Feature",
      "properties": {
        "name": "Fethiye"
      },
      "geometry": {
        "type": "Point",
        "coordinates": [
          29.1164,
          36.6514
        ]
      }
    },
    {
      "type": "Feature",
      "properties": {
        "name": "Milas"
      },
      "geometry": {
        "type": "Point",
        "coordinates": [
          27.7839,
          37.3139
        ]
      }
    },
    {
      "type": "Feature",
      "properties": {
        "name": "Ortaca"
      },
      "geometry": {
        "type": "Point",
        "coordinates": [
          28.7773,
          36.8341
        ]
      }
    },
    {
      "type": "Feature",
      "properties": {
        "name": "Köyceğiz"
      },
      "geometry": {
        "type": "Point",
        "coordinates": [
          28.6923,
          36.9506
        ]
      }
    },
    {
      "type": "Feature",
      "properties": {
        "name": "Seydikemer"
      },
      "geometry": {
        "type": "Point",
        "coordinates": [
          29.365,
          36.581
        ]
      }
    },
    {
      "type": "Feature",
      "properties": {
        "name": "Dalaman"
      },
      "geometry": {
        "type": "Point",
        "coordinates": [
          28.7964,
          36.7653
        ]
      }
    },
    {
      "type": "Feature",
      "properties": {
        "name": "Datça"
      },
      "geometry": {
        "type": "Point",
        "coordinates": [
          27.6854,
          36.7245
        ]
      }
    },
    {
      "type": "Feature",
      "properties": {
        "name": "Ula"
      },
      "geometry": {
        "type": "Point",
        "coordinates": [
          28.9333,
          37.0167
        ]
      }
    },
    {
      "type": "Feature",
      "properties": {
        "name": "Menteşe"
      },
      "geometry": {
        "type": "Point",
        "coordinates": [
          28.3667,
          37.1833
        ]
      }
    },
    {
      "type": "Feature",
      "properties": {
        "name": "Kavaklıdere"
      },
      "geometry": {
        "type": "Point",
        "coordinates": [
          28.46,
          37.433
        ]
      }
    },
    {
      "type": "Feature",
      "properties": {
        "name": "Yatağan"
      },
      "geometry": {
        "type": "Point",
        "coordinates": [
          28.1401,
          37.3416
        ]
      }
    }
  ]
}